id,lat,lon,station_name,river_bank
X.274,5.839205,101.892307,บ้านบูเก๊ะตา,23.5
X.119A,6.023349,101.975655,บริเวณสะพานลันตู,9.3
X.119,6.074279,102.040062,บ้านมูโน๊ะ,7
X.5C,9.113215,99.223678,บ้านท่าข้าม,2.5
X.37A,8.570979,99.253867,บ้านย่านดินแดง,11.7
X.217,8.84753,99.198863,บ้านเคียนซา,6
